{
"type": "FeatureCollection",
"name": "cities",
"crs": { "type": "name", "properties": { "name": "urn:ogc:def:crs:OGC:1.3:CRS84" } },
"features": [
{ "type": "Feature", "properties": { "fid": 1, "city": "Madrid", "admin_name": "Madrid", "capital": "primary", "population": 6211000, "population_proper": 3266126 }, "geometry": { "type": "Point", "coordinates": [ -3.7033, 40.4169 ] } },
{ "type": "Feature", "properties": { "fid": 2, "city": "Barcelona", "admin_name": "Catalonia", "capital": "admin", "population": 4800000, "population_proper": 1620343 }, "geometry": { "type": "Point", "coordinates": [ 2.1769, 41.3828 ] } },
{ "type": "Feature", "properties": { "fid": 3, "city": "Valencia", "admin_name": "Valencia", "capital": "admin", "population": 1595000, "population_proper": 807693 }, "geometry": { "type": "Point", "coordinates": [ -0.3764, 39.47 ] } },
{ "type": "Feature", "properties": { "fid": 4, "city": "Sevilla", "admin_name": "Andalusia", "capital": "admin", "population": 1100000, "population_proper": 684025 }, "geometry": { "type": "Point", "coordinates": [ -5.99, 37.39 ] } },
{ "type": "Feature", "properties": { "fid": 5, "city": "Málaga", "admin_name": "Andalusia", "capital": "minor", "population": 967250, "population_proper": 586384 }, "geometry": { "type": "Point", "coordinates": [ -4.42, 36.7194 ] } },
{ "type": "Feature", "properties": { "fid": 6, "city": "Bilbao", "admin_name": "Basque Country", "capital": "minor", "population": 775000, "population_proper": 346096 }, "geometry": { "type": "Point", "coordinates": [ -2.9236, 43.2569 ] } },
{ "type": "Feature", "properties": { "fid": 7, "city": "Zaragoza", "admin_name": "Aragon", "capital": "admin", "population": 682513, "population_proper": 682513 }, "geometry": { "type": "Point", "coordinates": [ -0.8833, 41.65 ] } },
{ "type": "Feature", "properties": { "fid": 8, "city": "Murcia", "admin_name": "Murcia", "capital": "admin", "population": 672773, "population_proper": 469177 }, "geometry": { "type": "Point", "coordinates": [ -1.1303, 37.9861 ] } },
{ "type": "Feature", "properties": { "fid": 9, "city": "Las Palmas", "admin_name": "Canary Islands", "capital": "admin", "population": 635000, "population_proper": 635000 }, "geometry": { "type": "Point", "coordinates": [ -15.4353, 28.1258 ] } },
{ "type": "Feature", "properties": { "fid": 10, "city": "Palma", "admin_name": "Balearic Islands", "capital": "admin", "population": 550000, "population_proper": 423350 }, "geometry": { "type": "Point", "coordinates": [ 2.65, 39.5667 ] } },
{ "type": "Feature", "properties": { "fid": 11, "city": "Santa Cruz", "admin_name": "Canary Islands", "capital": "admin", "population": 538000, "population_proper": 209395 }, "geometry": { "type": "Point", "coordinates": [ -16.25, 28.4667 ] } },
{ "type": "Feature", "properties": { "fid": 12, "city": "Alicante", "admin_name": "Valencia", "capital": "minor", "population": 349282, "population_proper": 349282 }, "geometry": { "type": "Point", "coordinates": [ -0.4831, 38.3453 ] } },
{ "type": "Feature", "properties": { "fid": 13, "city": "Córdoba", "admin_name": "Andalusia", "capital": "minor", "population": 323763, "population_proper": 323763 }, "geometry": { "type": "Point", "coordinates": [ -4.7796, 37.8845 ] } },
{ "type": "Feature", "properties": { "fid": 14, "city": "Valladolid", "admin_name": "Castille-Leon", "capital": "admin", "population": 297459, "population_proper": 297459 }, "geometry": { "type": "Point", "coordinates": [ -4.7236, 41.6528 ] } },
{ "type": "Feature", "properties": { "fid": 15, "city": "Vigo", "admin_name": "Galicia", "capital": null, "population": 293652, "population_proper": 293652 }, "geometry": { "type": "Point", "coordinates": [ -8.7124, 42.2314 ] } },
{ "type": "Feature", "properties": { "fid": 17, "city": "Vitoria-Gasteiz", "admin_name": "Basque Country", "capital": "admin", "population": 255886, "population_proper": 255886 }, "geometry": { "type": "Point", "coordinates": [ -2.6833, 42.85 ] } },
{ "type": "Feature", "properties": { "fid": 18, "city": "A Coruña", "admin_name": "Galicia", "capital": "minor", "population": 247604, "population_proper": 247604 }, "geometry": { "type": "Point", "coordinates": [ -8.41, 43.365 ] } },
{ "type": "Feature", "properties": { "fid": 19, "city": "Elche", "admin_name": "Valencia", "capital": null, "population": 238293, "population_proper": 238293 }, "geometry": { "type": "Point", "coordinates": [ -0.6983, 38.2669 ] } },
{ "type": "Feature", "properties": { "fid": 20, "city": "Granada", "admin_name": "Andalusia", "capital": "minor", "population": 230595, "population_proper": 230595 }, "geometry": { "type": "Point", "coordinates": [ -3.6008, 37.1781 ] } },
{ "type": "Feature", "properties": { "fid": 25, "city": "Cartagena", "admin_name": "Murcia", "capital": null, "population": 218050, "population_proper": 218050 }, "geometry": { "type": "Point", "coordinates": [ -0.9833, 37.6 ] } },
{ "type": "Feature", "properties": { "fid": 26, "city": "Oviedo", "admin_name": "Asturias", "capital": "admin", "population": 217584, "population_proper": 217584 }, "geometry": { "type": "Point", "coordinates": [ -5.845, 43.36 ] } },
{ "type": "Feature", "properties": { "fid": 29, "city": "Pamplona", "admin_name": "Navarre", "capital": "admin", "population": 205762, "population_proper": 205762 }, "geometry": { "type": "Point", "coordinates": [ -1.65, 42.8167 ] } },
{ "type": "Feature", "properties": { "fid": 36, "city": "Castellón de la Plana", "admin_name": "Valencia", "capital": "minor", "population": 176238, "population_proper": 176238 }, "geometry": { "type": "Point", "coordinates": [ -0.0331, 39.9831 ] } },
{ "type": "Feature", "properties": { "fid": 37, "city": "Burgos", "admin_name": "Castille-Leon", "capital": "minor", "population": 174451, "population_proper": 174451 }, "geometry": { "type": "Point", "coordinates": [ -3.7067, 42.35 ] } },
{ "type": "Feature", "properties": { "fid": 39, "city": "Santander", "admin_name": "Cantabria", "capital": "admin", "population": 172726, "population_proper": 172726 }, "geometry": { "type": "Point", "coordinates": [ -3.805, 43.4628 ] } },
{ "type": "Feature", "properties": { "fid": 44, "city": "Logroño", "admin_name": "La Rioja", "capital": "admin", "population": 150583, "population_proper": 150583 }, "geometry": { "type": "Point", "coordinates": [ -2.4456, 42.465 ] } },
{ "type": "Feature", "properties": { "fid": 46, "city": "Salamanca", "admin_name": "Castille-Leon", "capital": "minor", "population": 143954, "population_proper": 143954 }, "geometry": { "type": "Point", "coordinates": [ -5.6642, 40.965 ] } },
{ "type": "Feature", "properties": { "fid": 47, "city": "Lleida", "admin_name": "Catalonia", "capital": "minor", "population": 143094, "population_proper": 143094 }, "geometry": { "type": "Point", "coordinates": [ 0.6333, 41.6167 ] } },
{ "type": "Feature", "properties": { "fid": 50, "city": "Tarragona", "admin_name": "Catalonia", "capital": "minor", "population": 138262, "population_proper": 138262 }, "geometry": { "type": "Point", "coordinates": [ 1.2528, 41.1175 ] } },
{ "type": "Feature", "properties": { "fid": 55, "city": "León", "admin_name": "Castille-Leon", "capital": "minor", "population": 122051, "population_proper": 120951 }, "geometry": { "type": "Point", "coordinates": [ -5.57, 42.6056 ] } },
{ "type": "Feature", "properties": { "fid": 58, "city": "Cádiz", "admin_name": "Andalusia", "capital": "minor", "population": 111811, "population_proper": 111811 }, "geometry": { "type": "Point", "coordinates": [ -6.2975, 36.535 ] } },
{ "type": "Feature", "properties": { "fid": 61, "city": "Girona", "admin_name": "Catalonia", "capital": "minor", "population": 104320, "population_proper": 104320 }, "geometry": { "type": "Point", "coordinates": [ 2.8211, 41.9844 ] } },
{ "type": "Feature", "properties": { "fid": 66, "city": "Santiago de Compostela", "admin_name": "Galicia", "capital": "admin", "population": 98687, "population_proper": 98687 }, "geometry": { "type": "Point", "coordinates": [ -8.5444, 42.8778 ] } },
{ "type": "Feature", "properties": { "fid": 74, "city": "Toledo", "admin_name": "Castille-La Mancha", "capital": "admin", "population": 86070, "population_proper": 86070 }, "geometry": { "type": "Point", "coordinates": [ -4.0244, 39.8567 ] } },
{ "type": "Feature", "properties": { "fid": 100, "city": "Mérida", "admin_name": "Extremadura", "capital": "admin", "population": 59461, "population_proper": 59461 }, "geometry": { "type": "Point", "coordinates": [ -6.3333, 38.9 ] } },
{ "type": "Feature", "properties": { "fid": 286, "city": "Ibiza", "admin_name": "", "capital": null, "population": null, "population_proper": null }, "geometry": { "type": "Point", "coordinates": [ 1.422427647351964, 38.906935188514659 ] } },
{ "type": "Feature", "properties": { "fid": 287, "city": "San Sebastian", "admin_name": null, "capital": null, "population": null, "population_proper": null }, "geometry": { "type": "Point", "coordinates": [ -1.98219692234324, 43.317898296304925 ] } }
]
}
